     3.03           Observation Data    M                   RINEX VERSION / TYPE
MicDrop             IKOS                20260507 183924 UTC PGM / RUN BY / DATE 
                                                            COMMENT             
                                                            MARKER NAME         
GROUND_CRAFT                                                MARKER TYPE         
CH-01               IKOS                                    OBSERVER / AGENCY   
UBX-F9P             GROUND_CRAFT        0.0.1               REC # / TYPE / VERS 
Unknown             Unknown                                 ANT # / TYPE        
        0.0000        0.0000        0.0000                  ANTENNA: DELTA H/E/N
G    4 C1C L1C D1C S1C                                      SYS / # / OBS TYPES 
R    4 C1C L1C D1C S1C                                      SYS / # / OBS TYPES 
E    4 C1C L1C D1C S1C                                      SYS / # / OBS TYPES 
C    4 C2I L2I D2I S2I                                      SYS / # / OBS TYPES 
J    4 C1C L1C D1C S1C                                      SYS / # / OBS TYPES 
DBHZ                                                        SIGNAL STRENGTH UNIT
  2026    05    07    18    39   43.0000000     GPS         TIME OF FIRST OBS   
G L1C                                                       SYS / PHASE SHIFT   
R L1C                                                       SYS / PHASE SHIFT   
E L1C                                                       SYS / PHASE SHIFT   
C L2I                                                       SYS / PHASE SHIFT   
J L1C                                                       SYS / PHASE SHIFT   
  4 R04  6 R12 -1 R20  2 R19  3                             GLONASS SLOT / FRQ #
                                                            GLONASS SLOT / FRQ #
                                                            GLONASS COD/PHS/BIS 
                                                            END OF HEADER       
> 2026 05 07 18 39 43.0080000  0 27                                             
G11  24029078.585   126273678.893        1384.098          31.000               
G04  24594637.827   129245702.034       -2712.691          35.000               
C27  25865275.080   134687270.822       -2208.025          41.000               
C07  43069245.280   224272864.455       -1129.554          26.000               
C10  42771957.215   222724810.115        -740.539          34.000               
C33  26236804.857   136621926.907       -2289.056          37.000               
C11  28593541.638   148894073.895        2208.018          16.000               
C25  27246830.945   141881398.425        2784.914          24.000               
E15  26351651.428   138478862.012         607.159          37.000               
G19  27234015.327   143115715.518       -3521.504          18.000               
G09  22599638.001   118761897.946        -981.750          35.000               
G21  25627645.044   134674173.529        2973.864          27.000               
E03  26253097.029   137960965.369        1230.209          37.000               
C28  27864627.652   145098451.989       -3437.086          27.000               
C58  43352173.424   225746138.767       -3003.617          25.000               
C30  26671908.500   138887631.930         792.472          37.000               
C41  24456497.914   127351412.824          45.900          34.000               
C24  27192905.528   141600607.824         316.743          32.000               
G07  24767782.499   130155583.867        2174.005          33.000               
E09  30673183.592   161188667.091       -2868.062          15.000               
E05  26485742.553   139183515.283       -1478.216          36.000               
E13  29789118.892   156542875.611        2749.871          23.000               
G06  23617819.928   124112475.306       -1589.582          39.000               
C32  27164081.040   141450503.172        2435.586          32.000               
E32  27950163.192   146879076.092        2315.287          32.000               
E08  30109625.978   158227152.034        2757.144          11.000               
E34  27020296.688   141992593.306       -2234.777          26.000               
> 2026 05 07 18 39 44.0080000  0 28                                             
G11  24028815.185   126272294.806        1383.780          31.000               
G04  24595153.963   129248414.354       -2712.468          36.000               
C27  25865699.180   134689479.222       -2208.239          41.000               
C07  43069462.075   224273990.366       -1129.788          26.000               
C10  42772099.585   222725551.090        -740.927          34.000               
C33  26237244.481   136624215.954       -2289.447          38.000               
C11  28593116.418   148891860.528        2193.786          18.000               
C25  27246296.383   141878614.235        2785.943          26.000               
R04  21877247.851   117151667.387        -536.917          39.000               
R12  26235598.396   140145856.772       -2542.169          34.000               
E15  26351535.799   138478254.732         607.487          37.000               
G19  27234686.009   143119240.025       -3521.504          20.000               
G09  22599825.001   118762880.185        -982.200          36.000               
G21  25627079.460   134671200.363        2972.539          29.000               
E03  26252863.074   137959735.002        1230.366          38.000               
C28  27865287.653   145101889.572       -3437.322          28.000               
C58  43352750.507   225749142.960       -3004.321          26.000               
C30  26671756.386   138886839.752         792.216          37.000               
C41  24456489.215   127351367.132          46.103          34.000               
C24  27192844.593   141600290.750         318.018          32.000               
G07  24767368.859   130153410.456        2173.131          34.000               
E05  26486023.792   139184993.481       -1477.999          37.000               
E13  29788595.448   156540125.484        2752.085          26.000               
G06  23618122.478   124114065.023       -1590.288          40.000               
C32  27163613.191   141448067.451        2435.768          33.000               
E32  27949722.771   146876760.912        2315.471          33.000               
E08  30109102.519   158224401.204        2753.121          13.000               
E34  27020722.302   141994827.961       -2235.171          27.000               
> 2026 05 07 18 39 45.0080000  0 27                                             
G11  24028551.987   126270911.257        1382.525          34.000               
G04  24595670.209   129251126.906       -2712.340          37.000               
C27  25866123.302   134691688.090       -2209.002          42.000               
C07  43069678.168   224275115.746       -1129.233          28.000               
C10  42772241.900   222726292.147        -740.724          36.000               
C33  26237684.123   136626505.111       -2289.246          39.000               
C11  28592692.118   148889650.644        2214.888          20.000               
C25  27245762.005   141875832.034        2785.219          28.000               
R04  21877348.246   117152204.837        -537.654          41.000               
R12  26236076.944   140148399.558       -2542.743          34.000               
E15  26351420.365   138477647.871         606.599          38.000               
G19  27235357.954   143122771.533       -3521.504          20.000               
G09  22600011.851   118763862.816        -982.891          38.000               
G21  25626513.901   134668227.264        2972.667          30.000               
E03  26252628.826   137958504.976        1229.880          39.000               
C28  27865947.753   145105327.200       -3437.740          29.000               
C58  43353327.654   225752147.279       -3005.045          26.000               
C30  26671604.396   138886048.142         791.504          38.000               
C41  24456480.479   127351321.774          45.685          36.000               
C24  27192783.772   141599974.310         316.088          35.000               
G07  24766955.440   130151237.407        2172.472          37.000               
E05  26486305.040   139186471.947       -1478.799          39.000               
E13  29788070.641   156537366.954        2750.580          26.000               
G06  23618425.092   124115655.293       -1590.388          41.000               
C32  27163145.372   141445631.927        2434.949          33.000               
E32  27949282.675   146874445.961        2315.062          34.000               
E34  27021146.819   141997062.964       -2234.895          26.000               
> 2026 05 07 18 39 46.0080000  0 27                                             
G11  24028288.872   126269528.245        1382.683          33.000               
G04  24596186.455   129253839.688       -2712.446          38.000               
C27  25866547.554   134693897.313       -2209.205          43.000               
C07  43069894.870   224276245.300       -1130.039          31.000               
C10  42772384.248   222727033.307        -741.142          36.000               
C33  26238123.720   136628794.386       -2289.362          39.000               
C11  28592267.523   148887439.339        2209.932          20.000               
C25  27245228.458   141873047.080        2784.514          29.000               
R04  21877448.776   117152742.680        -538.014          41.000               
R12  26236553.842   140150942.949       -2543.280          35.000               
E15  26351304.874   138477041.403         606.498          38.000               
G09  22600198.880   118764845.990        -983.296          37.000               
G21  25625948.344   134665254.240        2973.191          32.000               
E03  26252394.745   137957275.236        1229.459          40.000               
C28  27866607.747   145108764.731       -3437.007          28.000               
C58  43353904.677   225755151.851       -3004.413          27.000               
C30  26671452.591   138885257.059         790.334          39.000               
C41  24456471.791   127351276.625          45.046          39.000               
C24  27192723.004   141599658.372         315.062          36.000               
G07  24766542.022   130149064.726        2172.809          37.000               
E09  30674832.069   161197329.713       -2887.168          16.000               
E05  26486586.198   139187950.594       -1478.694          39.000               
E13  29787547.568   156534618.975        2749.213          26.000               
G06  23618727.813   124117246.162       -1591.027          41.000               
C32  27162677.590   141443196.378        2435.845          34.000               
E32  27948841.877   146872131.190        2314.736          34.000               
E34  27021571.245   141999315.291       -2235.356          26.000               
> 2026 05 07 18 39 47.0080000  0 27                                             
G11  24028025.869   126268145.909        1381.364          32.000               
G04  24596702.781   129256552.759       -2712.929          37.000               
C27  25866971.909   134696106.985       -2210.033          43.000               
C07  43070114.905   224277374.945       -1129.443          32.000               
C10  42772526.706   222727774.614        -741.855          36.000               
C33  26238563.419   136631083.899       -2289.655          39.000               
C11  28591843.948   148885233.799        2201.823          21.000               
C25  27244694.139   141870262.384        2784.901          28.000               
R04  21877549.376   117153281.075        -538.834          40.000               
R12  26237031.353   140153487.019       -2544.324          35.000               
E15  26351189.833   138476435.390         605.682          38.000               
G09  22600386.033   118765829.613        -983.725          38.000               
G21  25625382.167   134662281.406        2972.905          32.000               
E03  26252161.115   137956045.836        1229.325          40.000               
C28  27867267.703   145112202.443       -3437.121          29.000               
C58  43354481.867   225758156.639       -3004.196          27.000               
C30  26671300.792   138884466.513         790.241          38.000               
C41  24456463.148   127351231.839          44.259          39.000               
C24  27192662.300   141599342.984         314.917          35.000               
G07  24766128.663   130146892.542        2171.562          36.000               
E09  30675381.270   161200216.519       -2896.603          17.000               
E05  26486867.518   139189429.583       -1479.001          39.000               
E13  29787023.472   156531869.152        2749.984          26.000               
G06  23619030.614   124118837.698       -1591.845          40.000               
C32  27162209.938   141440761.102        2434.947          34.000               
E32  27948401.110   146869816.670        2314.120          34.000               
E34  27021998.968   142001550.964       -2235.393          27.000               
> 2026 05 07 18 39 48.0080000  0 28                                             
G11  24027763.073   126266764.046        1380.954          33.000               
G04  24597219.256   129259266.034       -2714.455          37.000               
G30  26696996.487   140293663.193        3520.549          26.000               
C27  25867396.484   134698316.991       -2210.605          43.000               
C07  43070331.731   224278504.577       -1130.245          34.000               
C10  42772669.239   222728516.010        -742.270          32.000               
C33  26239003.203   136633373.468       -2289.880          39.000               
C11  28591419.201   148883021.853        2202.513          21.000               
C25  27244157.569   141867477.782        2784.044          29.000               
R04  21877649.987   117153819.843        -539.767          41.000               
R12  26237508.697   140156031.730       -2545.105          34.000               
E15  26351074.822   138475829.695         605.220          38.000               
G09  22600573.332   118766813.627        -984.417          38.000               
G21  25624816.356   134659308.591        2972.582          31.000               
E03  26251927.053   137954816.684        1228.340          40.000               
C28  27867927.532   145115640.106       -3437.945          29.000               
C58  43355058.903   225761161.662       -3005.324          28.000               
C30  26671148.950   138883676.404         789.289          39.000               
C41  24456454.517   127351187.287          43.947          39.000               
C24  27192601.947   141599028.092         313.788          37.000               
G07  24765715.473   130144720.650        2170.795          36.000               
E09  30675931.460   161203107.115       -2870.798          17.000               
E05  26487148.972   139190908.762       -1479.796          39.000               
E13  29786499.846   156529119.299        2749.719          25.000               
G06  23619333.585   124120429.691       -1592.792          42.000               
C32  27161742.290   141438325.867        2434.776          35.000               
E32  27947960.300   146867502.264        2313.542          35.000               
E34  27022421.475   142003786.853       -2236.186          28.000               
> 2026 05 07 18 39 49.0080000  0 28                                             
G11  24027500.274   126265382.761        1381.196          34.000               
G04  24597735.696   129261979.515       -2713.812          37.000               
G30  26696326.381   140290142.674        3520.079          27.000               
C27  25867821.097   134700527.379       -2210.483          43.000               
C07  43070549.507   224279634.346       -1130.611          34.000               
C10  42772811.595   222729257.381        -740.965          32.000               
C33  26239442.890   136635663.162       -2289.972          39.000               
C11  28590993.894   148880807.233        2220.203          21.000               
C25  27243622.035   141864693.439        2784.234          28.000               
R04  21877750.742   117154359.014        -539.327          41.000               
R12  26237984.585   140158577.131       -2546.204          34.000               
E15  26350959.659   138475224.422         605.096          39.000               
G09  22600760.648   118767798.079        -984.942          38.000               
G21  25624250.709   134656335.926        2971.230          31.000               
E03  26251693.145   137953587.857        1228.592          39.000               
C28  27868587.667   145119077.796       -3437.385          29.000               
C58  43355636.360   225764166.950       -3005.610          27.000               
C30  26670997.365   138882886.850         789.498          38.000               
C41  24456446.070   127351142.999          44.006          39.000               
C24  27192541.534   141598713.683         314.680          37.000               
G07  24765302.275   130142549.144        2170.602          36.000               
E09  30676481.177   161205996.494       -2872.104          18.000               
E05  26487430.344   139192388.175       -1479.710          39.000               
E13  29785976.243   156526360.682        2749.873          25.000               
G06  23619636.699   124122022.304       -1592.772          42.000               
C32  27161274.655   141435890.759        2434.485          34.000               
E32  27947519.601   146865188.052        2314.271          34.000               
E34  27022848.377   142006023.168       -2236.817          27.000               
> 2026 05 07 18 39 50.0080000  0 28                                             
G11  24027237.396   126264001.996        1379.716          33.000               
G04  24598252.070   129264693.122       -2713.987          37.000               
G30  26695656.100   140286622.100        3519.843          27.000               
C27  25868245.664   134702738.061       -2211.279          42.000               
C07  43070764.994   224280764.012       -1129.606          34.000               
C10  42772954.078   222729998.845        -741.844          33.000               
C33  26239882.661   136637952.876       -2289.923          40.000               
C11  28590569.660   148878598.691        2201.940          20.000               
C25  27243089.153   141861909.110        2784.424          27.000               
R04  21877851.570   117154898.578        -539.996          40.000               
R12  26238460.679   140161123.013       -2546.533          34.000               
E15  26350844.726   138474619.467         604.834          38.000               
G09  22600947.961   118768782.788        -983.965          37.000               
G21  25623684.874   134653363.086        2973.583          31.000               
E03  26251459.522   137952359.185        1228.652          39.000               
C28  27869247.668   145122515.497       -3438.434          29.000               
C58  43356213.728   225767172.294       -3005.688          28.000               
C30  26670845.817   138882097.711         789.036          39.000               
C41  24456437.641   127351098.828          44.023          39.000               
C24  27192481.207   141598399.742         313.754          36.000               
G07  24764889.076   130140377.903        2171.174          37.000               
E09  30677028.561   161208872.566       -2874.990          18.000               
E05  26487712.009   139193867.752       -1479.522          39.000               
E13  29785453.483   156523614.007        2747.993          25.000               
G06  23619939.759   124123615.395       -1593.723          41.000               
C32  27160806.953   141433455.607        2435.251          35.000               
E32  27947078.916   146862873.943        2314.315          34.000               
E34  27023273.589   142008259.624       -2236.744          27.000               
> 2026 05 07 18 39 51.0080000  0 28                                             
G11  24026974.879   126262621.696        1380.546          33.000               
G04  24598768.492   129267406.908       -2713.957          37.000               
G30  26694988.231   140283101.369        3520.311          27.000               
C27  25868670.116   134704949.105       -2211.564          43.000               
C07  43070982.556   224281893.218       -1129.115          32.000               
C10  42773096.576   222730740.406        -743.059          34.000               
C33  26240322.550   136640242.723       -2290.204          41.000               
C11  28590147.389   148876399.054        2201.887          19.000               
C25  27242553.339   141859125.007        2784.149          28.000               
R04  21877952.536   117155438.480        -540.425          40.000               
R20  22982180.624   122896047.728        1442.187          33.000               
E15  26350729.457   138474014.879         604.174          38.000               
G09  22601135.450   118769768.037        -985.788          37.000               
G21  25623113.326   134650368.462        2972.794          30.000               
E03  26251226.074   137951130.816        1228.192          40.000               
C28  27869907.442   145125953.112       -3437.883          29.000               
C58  43356790.905   225770177.860       -3005.762          29.000               
C30  26670694.292   138881309.064         788.628          39.000               
C41  24456429.269   127351054.957          43.656          39.000               
C24  27192421.040   141598086.277         312.704          36.000               
G07  24764475.929   130138207.014        2170.432          36.000               
E09  30677578.646   161211763.698       -2887.298          17.000               
E05  26487993.803   139195347.586       -1479.861          39.000               
E13  29784931.694   156520872.419        2749.343          26.000               
G06  23620243.083   124125209.014       -1594.301          41.000               
C32  27160339.320   141431020.548        2435.460          34.000               
E32  27946638.692   146860559.987        2314.082          34.000               
E34  27023699.166   142010496.402       -2236.906          27.000               
> 2026 05 07 18 39 52.0080000  0 26                                             
G11  24026712.612   126261242.111        1379.294          32.000               
G04  24599285.147   129270121.092       -2714.201          38.000               
G30  26694318.799   140279581.040        3519.938          27.000               
C27  25869094.752   134707160.663       -2211.738          44.000               
C07  43071199.937   224283023.196       -1128.830          31.000               
C10  42773239.142   222731482.093        -741.567          35.000               
C33  26240762.466   136642532.819       -2289.917          41.000               
C11  28589722.587   148874187.908        2199.734          21.000               
C25  27242018.066   141856341.139        2783.878          28.000               
R20  22981909.371   122894597.227        1440.940          34.000               
E15  26350614.452   138473410.829         603.848          38.000               
G09  22601323.038   118770753.818        -985.695          37.000               
E03  26250992.491   137949902.871        1227.875          39.000               
C28  27870567.480   145129390.884       -3437.777          29.000               
C58  43357368.202   225773183.794       -3006.102          29.000               
C30  26670542.921   138880521.070         787.852          38.000               
C41  24456420.820   127351011.470          43.962          38.000               
C24  27192361.000   141597773.465         312.626          35.000               
G07  24764062.828   130136036.664        2170.319          36.000               
E09  30678129.071   161214655.708       -2872.600          16.000               
E05  26488275.204   139196827.759       -1480.539          38.000               
E13  29784408.068   156518120.130        2749.590          27.000               
G06  23620546.535   124126803.352       -1594.793          41.000               
C32  27159871.803   141428585.813        2435.043          34.000               
E32  27946198.185   146858246.402        2312.917          33.000               
E34  27024122.695   142012733.574       -2237.089          27.000               
> 2026 05 07 18 39 53.0080000  0 26                                             
G11  24026450.445   126259863.155        1378.635          33.000               
G04  24599801.797   129272835.540       -2714.459          38.000               
G30  26693648.655   140276060.655        3520.557          26.000               
C27  25869519.503   134709372.675       -2212.393          43.000               
C07  43071416.890   224284153.309       -1130.420          30.000               
C10  42773381.619   222732224.043        -741.759          36.000               
C33  26241202.349   136644823.103       -2290.106          41.000               
C11  28589300.364   148871988.502        2199.943          21.000               
C25  27241484.140   141853557.492        2783.433          28.000               
R20  22981638.609   122893156.966        1439.208          34.000               
E15  26350499.384   138472807.188         603.516          38.000               
G09  22601510.753   118771740.110        -986.564          37.000               
E03  26250758.772   137948675.277        1227.376          40.000               
C28  27871227.465   145132828.800       -3437.996          28.000               
C58  43357945.399   225776189.922       -3005.739          29.000               
C30  26670391.719   138879733.654         786.938          38.000               
C41  24456412.437   127350968.344          42.545          38.000               
C24  27192300.879   141597461.214         312.186          34.000               
G07  24763649.893   130133866.764        2169.565          35.000               
E09  30678676.123   161217530.590       -2865.964          14.000               
E05  26488556.771   139198308.186       -1480.312          38.000               
E13  29783886.752   156515370.957        2748.987          27.000               
G06  23620849.986   124128398.331       -1595.423          41.000               
C32  27159404.398   141426151.227        2434.285          35.000               
E32  27945757.861   146855932.979        2313.288          34.000               
E34  27024550.210   142014971.202       -2238.346          27.000               
> 2026 05 07 18 39 54.0080000  0 26                                             
G11  24026188.612   126258484.652        1377.222          33.000               
G04  24600318.550   129275550.096       -2714.566          38.000               
G30  26692979.377   140272540.298        3519.819          25.000               
C27  25869944.349   134711584.957       -2212.515          43.000               
C07  43071633.818   224285283.324       -1129.894          29.000               
C10  42773524.125   222732965.903        -741.944          37.000               
C33  26241642.186   136647113.408       -2290.399          41.000               
C11  28588876.361   148869780.501        2211.896          21.000               
C25  27240949.926   141850773.931        2783.385          28.000               
R20  22981369.830   122891717.355        1439.382          34.000               
E15  26350384.239   138472203.883         603.187          38.000               
G09  22601698.452   118772726.705        -986.705          37.000               
E03  26250525.120   137947447.881        1227.126          40.000               
C28  27871887.353   145136266.579       -3437.556          28.000               
C58  43358522.770   225779196.283       -3006.588          28.000               
C30  26670240.578   138878946.624         786.801          38.000               
C41  24456404.131   127350925.353          42.589          38.000               
C24  27192240.984   141597149.385         311.887          35.000               
G07  24763237.088   130131697.068        2170.145          35.000               
E09  30679222.278   161220400.944       -2869.388          13.000               
E05  26488838.545   139199788.775       -1480.879          38.000               
E13  29783363.148   156512621.802        2748.882          27.000               
G06  23621153.528   124129993.739       -1595.567          40.000               
C32  27158936.935   141423716.625        2434.153          34.000               
E32  27945317.461   146853619.665        2313.001          34.000               
E34  27024975.632   142017208.874       -2237.818          27.000               
> 2026 05 07 18 39 55.0080000  0 26                                             
G11  24025926.468   126257106.816        1378.098          33.000               
G04  24600835.307   129278265.075       -2715.144          38.000               
G30  26692310.302   140269020.064        3520.150          25.000               
C27  25870369.400   134713797.768       -2212.805          43.000               
C07  43071850.792   224286413.576       -1130.028          29.000               
C10  42773666.647   222733708.042        -742.581          37.000               
C33  26242082.156   136649403.993       -2290.656          41.000               
C11  28588453.525   148867579.567        2202.147          21.000               
C25  27240416.208   141847990.638        2783.777          28.000               
R20  22981100.501   122890278.785        1438.201          34.000               
E15  26350269.657   138471601.097         602.657          38.000               
G09  22601886.334   118773713.929        -987.535          38.000               
E03  26250291.600   137946220.922        1226.920          39.000               
C28  27872547.283   145139704.589       -3438.600          28.000               
C58  43359100.126   225782202.969       -3006.921          28.000               
C30  26670089.476   138878160.281         786.523          39.000               
C41  24456396.067   127350882.805          42.455          38.000               
C24  27192181.130   141596838.220         311.088          35.000               
G07  24762824.297   130129527.986        2169.212          35.000               
E09  30679768.643   161223272.096       -2853.282          11.000               
E05  26489120.225   139201269.743       -1480.798          38.000               
E13  29782841.020   156509872.834        2748.690          27.000               
G06  23621457.371   124131589.909       -1596.377          40.000               
C32  27158469.422   141421282.258        2434.225          34.000               
E32  27944877.265   146851306.691        2312.895          34.000               
E34  27025401.857   142019447.060       -2238.010          27.000               
> 2026 05 07 18 39 56.0080000  0 24                                             
G11  24025664.668   126255729.511        1376.802          34.000               
G04  24601351.976   129280980.145       -2714.998          38.000               
G30  26691640.084   140265499.844        3520.589          25.000               
C27  25870794.440   134716010.902       -2212.950          42.000               
C07  43072067.772   224287543.856       -1130.335          29.000               
C10  42773809.119   222734450.152        -741.848          36.000               
C33  26242522.059   136651694.629       -2290.704          41.000               
C11  28588029.548   148865371.843        2204.723          22.000               
C25  27239882.020   141845207.536        2783.005          28.000               
E15  26350154.801   138470998.645         602.509          38.000               
G09  22602074.298   118774701.461        -987.610          38.000               
E03  26250058.085   137944994.175        1226.968          39.000               
C28  27873207.245   145143142.475       -3437.840          28.000               
C58  43359677.501   225785209.800       -3007.276          27.000               
C30  26669938.617   138877374.419         785.489          39.000               
C41  24456387.986   127350840.426          42.163          38.000               
C24  27192121.408   141596527.518         310.244          35.000               
G07  24762411.532   130127359.178        2168.666          35.000               
E05  26489402.136   139202750.875       -1480.895          38.000               
E13  29782315.395   156507123.897        2748.982          27.000               
G06  23621761.173   124133186.556       -1596.802          41.000               
C32  27158002.077   141418847.962        2434.416          33.000               
E32  27944437.230   146848993.803        2313.264          34.000               
E34  27025827.441   142021685.555       -2238.400          26.000               
> 2026 05 07 18 39 57.0080000  0 24                                             
G11  24025402.711   126254352.857        1375.784          34.000               
G04  24601868.790   129283695.586       -2715.974          38.000               
G30  26690968.696   140261979.763        3520.323          25.000               
C27  25871219.711   134718224.525       -2214.096          42.000               
C07  43072284.923   224288674.182       -1130.617          28.000               
C10  42773951.768   222735192.485        -743.014          36.000               
C33  26242962.096   136653985.473       -2291.156          41.000               
C11  28587608.218   148863177.857        2194.891          23.000               
C25  27239347.604   141842424.623        2783.008          28.000               
E15  26350040.258   138470396.637         601.634          38.000               
G09  22602262.329   118775689.538        -988.094          38.000               
E03  26249824.566   137943767.824        1225.837          39.000               
C28  27873866.877   145146580.468       -3438.015          27.000               
C58  43360255.019   225788216.844       -3007.090          27.000               
C30  26669787.740   138876589.123         784.654          39.000               
C41  24456379.861   127350798.406          41.547          37.000               
C24  27192061.885   141596217.396         309.278          35.000               
G07  24761998.880   130125190.794        2168.294          35.000               
E05  26489684.128   139204232.339       -1481.505          38.000               
E13  29781792.041   156504375.203        2748.289          28.000               
G06  23622065.133   124134783.886       -1598.146          40.000               
C32  27157534.664   141416413.828        2434.306          33.000               
E32  27943996.968   146846681.194        2312.399          34.000               
E34  27026252.843   142023924.405       -2239.602          26.000               
> 2026 05 07 18 39 58.0080000  0 26                                             
G11  24025140.996   126252976.647        1376.458          34.000               
G04  24602385.636   129286411.149       -2715.911          38.000               
G30  26690297.763   140258459.770        3519.948          25.000               
C27  25871644.908   134720438.457       -2214.098          43.000               
C07  43072501.847   224289804.563       -1129.657          29.000               
C10  42774094.243   222735934.847        -742.520          36.000               
C33  26243402.179   136656276.377       -2291.077          41.000               
C11  28587185.051   148860974.314        2205.612          24.000               
C25  27238813.379   141839641.858        2783.004          29.000               
E15  26349925.730   138469795.009         601.636          38.000               
G09  22602450.365   118776678.006        -988.839          38.000               
E03  26249591.328   137942541.678        1226.243          39.000               
C28  27874526.948   145150018.468       -3437.440          27.000               
C58  43360832.541   225791224.215       -3007.417          27.000               
C30  26669636.960   138875804.256         784.916          39.000               
C41  24456371.885   127350756.598          41.164          37.000               
C24  27192002.507   141595907.713         309.038          35.000               
R19  22900468.212   122502062.517       -2909.113          33.000               
G07  24761586.284   130123022.788        2167.524          35.000               
E09  30681401.761   161231853.781       -2858.604          13.000               
E05  26489966.019   139205713.996       -1481.478          38.000               
E13  29781268.408   156501626.486        2748.441          28.000               
G06  23622369.206   124136381.708       -1598.274          40.000               
C32  27157067.185   141413979.795        2433.531          34.000               
E32  27943556.777   146844368.722        2312.469          34.000               
E34  27026676.212   142026163.438       -2238.878          26.000               
> 2026 05 07 18 39 59.0080000  0 26                                             
G11  24024879.261   126251601.046        1375.321          34.000               
G04  24602902.616   129289126.967       -2716.136          38.000               
G30  26689626.121   140254939.740        3519.495          25.000               
C27  25872070.304   134722652.792       -2214.853          43.000               
C07  43072718.814   224290935.079       -1130.789          29.000               
C10  42774236.796   222736677.306        -742.673          37.000               
C33  26243842.316   136658567.438       -2291.492          41.000               
C11  28586761.969   148858770.652        2201.516          25.000               
C25  27238279.018   141836859.271        2782.283          29.000               
E15  26349811.428   138469193.781         600.875          38.000               
G09  22602638.559   118777666.889        -989.091          38.000               
E03  26249357.972   137941315.874        1225.494          39.000               
C28  27875186.966   145153456.506       -3438.108          27.000               
C58  43361410.272   225794231.678       -3007.518          27.000               
C30  26669486.318   138875019.964         783.784          38.000               
C41  24456363.833   127350715.072          41.079          37.000               
C24  27191943.112   141595598.596         308.234          35.000               
R19  22901009.656   122504972.034       -2910.662          35.000               
G07  24761173.794   130120855.156        2167.008          35.000               
E09  30681947.904   161234724.343       -2885.946          13.000               
E05  26490248.053   139207195.902       -1482.095          38.000               
E13  29780746.888   156498877.897        2748.864          28.000               
G06  23622673.399   124137980.111       -1598.862          40.000               
C32  27156599.767   141411545.819        2433.818          34.000               
E32  27943116.772   146842056.440        2311.847          33.000               
E34  27027100.847   142028402.852       -2239.125          26.000               